City_ID,City,Lat,Lng,Max Temp,Humidity,Cloudiness,Wind Speed,Country,Date
0,adamstown,-25.066,-130.1015,21.08000000000004,62,63,3.0,PN,1689158301
1,puerto asis,0.5133,-76.5007,20.04000000000002,99,59,0.28,CO,1689158302
2,bilibino,68.0546,166.4372,14.960000000000036,59,51,0.69,RU,1689158303
3,port mathurin,-19.6833,63.4167,23.640000000000043,76,3,4.14,MU,1689158304
4,bel ombre,-4.6167,55.4167,27.910000000000025,74,20,6.17,SC,1689158305
5,yuci,37.6803,112.7319,26.860000000000014,61,40,7.0,CN,1689158306
6,grytviken,-54.2811,-36.5092,-5.829999999999984,83,45,3.05,GS,1689158307
7,manakara,-22.1333,48.0167,20.470000000000027,82,87,7.19,MG,1689158308
8,afaahiti,-17.75,-149.2833,25.930000000000007,77,39,10.28,PF,1689158309
9,bredasdorp,-34.5322,20.0403,15.810000000000002,52,0,1.84,ZA,1689158310
10,abalak,58.1286,68.5944,36.129999999999995,27,61,3.14,RU,1689158311
11,lae,-6.7221,146.9847,25.140000000000043,87,60,2.2,PG,1689158312
12,bethel,41.3712,-73.414,21.170000000000016,89,0,0.0,US,1689158313
13,saldanha,-33.0117,17.9442,21.03000000000003,44,0,2.37,ZA,1689158314
14,mount gambier,-37.8333,140.7667,9.890000000000043,79,100,4.06,AU,1689158315
15,waitangi,-43.9535,-176.5597,7.680000000000007,89,97,5.61,NZ,1689158316
16,betio village,1.358,172.9211,29.02000000000004,74,100,4.61,KI,1689158317
17,sandviken,60.6167,16.7667,18.950000000000045,58,100,3.71,SE,1689158318
18,papatowai,-46.5619,169.4708,6.189999999999998,77,93,8.88,NZ,1689158320
19,sandpoint,48.2766,-116.5533,13.57000000000005,92,0,0.0,US,1689158215
20,kegen,43.0197,79.2203,25.939999999999998,29,0,3.85,KZ,1689158322
21,quellon,-43.1167,-73.6167,2.170000000000016,88,13,1.02,CL,1689158323
22,longyearbyen,78.2186,15.6401,9.910000000000025,71,75,3.6,SJ,1689158324
23,jiangyou,31.7667,104.7167,27.810000000000002,87,100,1.57,CN,1689158325
24,katsuura,35.1333,140.3,25.57000000000005,90,47,11.11,JP,1689158326
25,uturoa,-16.7333,-151.4333,26.590000000000032,74,5,9.61,PF,1689158327
26,cidreira,-30.1811,-50.2056,16.689999999999998,95,100,10.04,BR,1689158328
27,invercargill,-46.4,168.35,6.439999999999998,92,94,7.25,NZ,1689158329
28,el dorado,38.7666,-120.5177,18.80000000000001,49,0,0.89,US,1689158330
29,hawaiian paradise park,19.5933,-154.9731,23.350000000000023,95,75,2.06,US,1689158331
30,port-aux-francais,-49.35,70.2167,3.7000000000000455,86,100,7.57,TF,1689158332
31,suez,29.9737,32.5263,37.23000000000002,19,0,6.65,EG,1689158333
32,pocone,-16.2567,-56.6228,22.420000000000016,39,5,2.76,BR,1689158334
33,blackmans bay,-43.0167,147.3167,15.410000000000025,61,87,4.45,AU,1689158335
34,albany,42.6001,-73.9662,20.450000000000045,91,82,0.89,US,1689158289
35,alofi,-19.0595,-169.9187,22.939999999999998,100,61,2.06,NU,1689158337
36,isafjordur,66.0755,-23.124,13.020000000000039,44,0,3.09,IS,1689158338
37,puerto natales,-51.7236,-72.4875,-4.8700000000000045,91,81,1.21,CL,1689158340
38,west island,-12.1568,96.8225,24.99000000000001,94,100,5.66,CC,1689158342
39,plainview,40.7765,-73.4673,24.75,80,0,0.0,US,1689158343
40,pushkar,26.5,74.55,31.140000000000043,64,69,1.63,IN,1689158345
41,kandahar,31.0,65.75,41.48000000000002,3,0,6.34,AF,1689158346
42,keflavik,64.0049,-22.5624,12.950000000000045,66,0,6.69,IS,1689158347
43,vicuna mackenna,-33.9197,-64.3922,6.050000000000011,96,100,3.39,AR,1689158348
44,lebu,-37.6167,-73.65,8.730000000000018,68,100,4.2,CL,1689158349
45,las heras,-46.5419,-68.9359,-3.919999999999959,89,46,0.99,AR,1689158350
46,nicoya,10.1483,-85.452,24.02000000000004,89,83,1.53,CR,1689158351
47,neiafu,-18.65,-173.9833,25.350000000000023,84,79,5.91,TO,1689158353
48,nemuro,43.3236,145.575,15.770000000000039,100,100,2.47,JP,1689158355
49,revelstoke,50.9832,-118.2023,15.010000000000048,94,20,1.03,CA,1689158218
50,tiksi,71.6872,128.8694,2.3700000000000045,97,100,3.44,RU,1689158357
51,strezhevoy,60.7333,77.5889,24.74000000000001,34,46,1.02,RU,1689158358
52,stanley,54.868,-1.6985,18.610000000000014,83,40,4.63,GB,1689158359
53,marsh harbour,26.5412,-77.0636,28.620000000000005,80,97,4.02,BS,1689158118
54,olonkinbyen,70.9221,-8.7187,3.840000000000032,92,100,7.01,SJ,1689158361
55,remire-montjoly,4.9167,-52.2667,25.02000000000004,94,0,0.0,GF,1689158198
56,dudinka,69.4058,86.1778,4.7900000000000205,48,100,8.51,RU,1689158363
57,badger,64.8,-147.5333,14.930000000000007,90,100,4.12,US,1689158078
58,edinburgh of the seven seas,-37.0676,-12.3116,14.430000000000007,89,70,5.47,SH,1689158365
59,qaqortoq,60.7167,-46.0333,9.180000000000007,83,35,1.41,GL,1689158366
60,murzuq,25.9155,13.9184,34.5,17,0,4.04,LY,1689158367
61,menaka,15.9182,2.4022,37.47000000000003,29,100,5.67,ML,1689158368
62,vadso,70.0744,29.7487,27.49000000000001,41,0,3.6,NO,1689158369
63,berdigestyakh,62.0989,126.6992,19.28000000000003,87,56,4.09,RU,1689158370
64,yuzhno-kurilsk,44.0306,145.8556,14.930000000000007,100,100,1.45,RU,1689158371
65,san patricio,28.017,-97.5169,28.939999999999998,87,21,4.9,US,1689158372
66,iskateley,67.6803,53.1512,14.57000000000005,54,100,5.66,RU,1689158373
67,acarau,-2.8856,-40.12,26.600000000000023,73,1,7.37,BR,1689158329
68,vila franca do campo,37.7167,-25.4333,22.230000000000018,87,63,7.42,PT,1689158375
69,ushuaia,-54.8,-68.3,2.8100000000000023,60,20,4.63,AR,1689158293
70,vorgashor,67.5833,63.95,15.340000000000032,49,12,3.85,RU,1689158378
71,coaldale,49.7167,-112.6185,14.53000000000003,94,0,2.57,CA,1689158379
72,wailua homesteads,22.0669,-159.378,26.439999999999998,81,100,7.2,US,1689158380
73,at taj,24.2049,23.2857,34.870000000000005,11,2,2.63,LY,1689158381
74,fisterra,42.9049,-9.2629,20.420000000000016,76,48,5.62,ES,1689158382
75,enewetak,11.3474,162.3373,28.590000000000032,78,3,6.97,MH,1689158383
76,goshaingaon,26.4379,89.9788,28.140000000000043,87,100,1.54,IN,1689158384
77,mar del plata,-38.0023,-57.5575,8.379999999999995,73,75,5.66,AR,1689158385
78,hermanus,-34.4187,19.2345,16.600000000000023,51,0,1.54,ZA,1689158386
79,port elizabeth,-33.918,25.5701,20.05000000000001,45,0,2.57,ZA,1689158387
80,egilsstadir,65.2653,-14.3948,7.9500000000000455,81,100,7.2,IS,1689158388
81,beira,-19.8436,34.8389,22.05000000000001,60,75,4.12,MZ,1689158389
82,goba,7.0167,39.9833,16.32000000000005,72,84,1.72,ET,1689158390
83,guerrero negro,27.9769,-114.0611,20.060000000000002,72,39,3.56,MX,1689158391
84,krasnyy chikoy,50.3643,108.7512,24.5,59,77,1.63,RU,1689158392
85,shalqar,47.8333,59.6,34.43000000000001,29,88,8.77,KZ,1689158393
86,puerto baquerizo moreno,-0.9,-89.6,24.939999999999998,82,82,5.97,EC,1689158394
87,lompoc,34.6391,-120.4579,11.439999999999998,95,2,2.25,US,1689158395
88,tolanaro,-25.0319,46.9987,23.04000000000002,46,20,4.12,MG,1689158396
89,namibe,-15.1961,12.1522,25.350000000000023,44,0,0.0,AO,1689158173
90,yellowknife,62.456,-114.3525,13.29000000000002,76,75,1.03,CA,1689158124
91,itoman,26.1247,127.6694,31.010000000000048,70,20,5.14,JP,1689158399
92,nikolayevsk-on-amure,53.1406,140.73,15.150000000000034,68,12,1.81,RU,1689158401
93,tazovsky,67.4667,78.7,9.110000000000014,44,66,7.03,RU,1689158402
94,la passe,45.5549,-0.8967,21.129999999999995,68,100,3.29,FR,1689158404
95,praia da vitoria,38.7333,-27.0667,23.200000000000045,94,75,11.55,PT,1689158405
96,hamilton,39.1834,-84.5333,20.430000000000007,89,0,0.0,US,1689158383
97,michigan city,41.7075,-86.895,16.29000000000002,95,94,2.2,US,1689158216
98,ath thawrah,35.8469,38.5443,35.06,13,0,4.75,SY,1689158408
99,saint-joseph,-21.3667,55.6167,25.210000000000036,74,13,2.75,RE,1689158409
100,ancud,-41.8697,-73.8203,3.680000000000007,83,18,1.64,CL,1689158410
101,umm kaddadah,13.6017,26.6876,30.470000000000027,45,64,6.33,SD,1689158411
102,jamestown,42.097,-79.2353,19.77000000000004,87,100,1.54,US,1689158379
103,aasiaat,68.7098,-52.8699,3.980000000000018,98,99,3.88,GL,1689158412
104,kavaratti,10.5669,72.642,28.379999999999995,78,42,8.19,IN,1689158413
105,horta,38.5333,-28.6333,22.230000000000018,96,75,11.18,PT,1689158360
106,new plymouth,-39.0667,174.0833,10.450000000000045,88,51,8.94,NZ,1689158334
107,mount pearl,47.5166,-52.7813,13.310000000000002,98,100,2.57,CA,1689158416
108,puerto ayora,-0.7393,-90.3518,25.310000000000002,93,48,4.47,EC,1689158417
109,college,64.8569,-147.8028,14.970000000000027,86,75,4.12,US,1689158418
110,khanty-mansiysk,61.0042,69.0019,22.060000000000002,64,0,3.0,RU,1689158419
111,beni,0.5,29.4667,27.120000000000005,49,23,1.88,CD,1689158421
112,qarazhal,48.0078,70.7903,38.129999999999995,14,5,4.73,KZ,1689158422
113,iqaluit,63.7506,-68.5145,7.850000000000023,93,100,6.17,CA,1689158423
114,ulladulla,-35.35,150.4667,12.100000000000023,67,13,2.7,AU,1689158425
115,yaren,-0.5472,166.916,28.29000000000002,75,18,4.36,NR,1689158426
116,chonchi,-42.6128,-73.8092,-0.4399999999999977,93,15,0.53,CL,1689158427
117,kaa-khem,51.6833,94.7333,23.590000000000032,53,72,4.43,RU,1689158428
118,hastings,50.8552,0.5729,21.33000000000004,23,12,9.85,GB,1689158429
119,ilhabela,-23.7781,-45.3581,20.640000000000043,90,21,3.0,BR,1689158430
120,tongren,27.7172,109.1853,30.410000000000025,71,92,4.1,CN,1689158431
121,aljustrel,37.8776,-8.1652,24.930000000000007,26,20,5.04,PT,1689158432
122,bubaque,11.2833,-15.8333,26.660000000000025,74,100,1.65,GW,1689158433
123,puerto el triunfo,13.2833,-88.55,26.33000000000004,70,100,1.87,SV,1689158434
124,port lincoln,-34.7333,135.8667,12.270000000000039,71,36,4.64,AU,1689158317
125,utrik,11.2278,169.8474,28.33000000000004,80,29,6.48,MH,1689158435
126,luderitz,-26.6481,15.1594,24.150000000000034,25,0,9.39,NA,1689158436
127,haiku-pauwela,20.9219,-156.3051,24.470000000000027,73,0,3.13,US,1689158437
128,choibalsan,48.0667,114.5,23.24000000000001,64,90,2.06,MN,1689158438
129,tabou,4.423,-7.3528,25.890000000000043,83,93,3.84,CI,1689158439
130,eyl,7.9803,49.8164,34.24000000000001,42,26,12.43,SO,1689158440
131,ushtobe,45.2514,77.9838,38.22000000000003,13,0,7.11,KZ,1689158441
132,belmonte,-15.8631,-38.8828,23.390000000000043,74,7,1.66,BR,1689158442
133,puerto armuelles,8.2833,-82.8667,27.27000000000004,84,95,1.34,PA,1689158350
134,changde,29.0464,111.6783,31.620000000000005,58,83,3.5,CN,1689158444
135,thunder bay,48.4001,-89.3168,6.990000000000009,93,20,1.54,CA,1689158445
136,lozuvatka,48.0571,33.2858,24.650000000000034,38,41,3.46,UA,1689158447
137,sal rei,16.1833,-22.9167,27.110000000000014,69,40,3.09,CV,1689158448
138,motygino,58.1831,94.7592,24.03000000000003,38,61,1.1,RU,1689158449
139,chibougamau,49.9168,-74.3659,12.79000000000002,82,100,1.54,CA,1689158450
140,kapuskasing,49.4169,-82.4331,8.050000000000011,93,20,2.06,CA,1689158451
141,georgetown,5.4112,100.3354,31.640000000000043,72,20,2.68,MY,1689158452
142,fortuna,40.5982,-124.1573,14.25,91,91,1.85,US,1689158453
143,saipan,15.1355,145.701,28.390000000000043,100,20,4.63,MP,1689158454
144,tannum sands,-23.9504,151.3693,19.939999999999998,56,75,4.63,AU,1689158456
145,shirvan,39.9509,48.8994,30.710000000000036,33,0,7.61,AZ,1689158457
146,geraldton,-28.7667,114.6,15.230000000000018,82,0,2.06,AU,1689158458
147,ribeira grande,38.5167,-28.7,22.650000000000034,94,75,11.18,PT,1689158459
148,avarua,-21.2078,-159.775,24.03000000000003,88,20,1.54,CK,1689158460
149,kill devil hills,36.0307,-75.676,25.55000000000001,88,0,0.0,US,1689158461
150,balabac,7.9868,117.0645,27.930000000000007,81,64,7.39,PH,1689158462
151,baryshivka,50.361,31.3217,22.32000000000005,35,39,3.19,UA,1689158463
152,ugoofaaru,5.6667,73.0,28.24000000000001,76,91,4.95,MV,1689158464
153,lautoka,-17.6167,177.4667,22.920000000000016,68,75,5.14,FJ,1689158465
154,kuching,1.55,110.3333,28.879999999999995,82,20,0.51,MY,1689158297
155,taoudenni,22.6783,-3.9836,44.79000000000002,6,0,4.44,ML,1689158467
156,falam,22.9167,93.6833,20.230000000000018,94,100,0.07,MM,1689158468
157,pisco,-13.7,-76.2167,17.03000000000003,82,47,1.54,PE,1689158469
158,pariaman,-0.619,100.12,29.03000000000003,83,52,0.71,ID,1689158470
159,tamanrasset,22.785,5.5228,33.950000000000045,9,0,8.75,DZ,1689158471
160,nantucket,41.2835,-70.0995,22.03000000000003,93,0,2.57,US,1689158294
161,punta arenas,-53.15,-70.9167,1.0600000000000023,93,100,3.6,CL,1689158387
162,giado,31.9582,12.0203,32.79000000000002,11,0,3.52,LY,1689158474
163,maamba,-17.3667,27.15,20.010000000000048,36,14,3.91,ZM,1689158475
164,mogocha,53.7333,119.7667,24.470000000000027,56,83,1.11,RU,1689158477
165,slyudyanka,51.6594,103.7061,22.05000000000001,69,96,1.75,RU,1689158478
166,anadyr,64.75,177.4833,14.28000000000003,82,0,3.0,RU,1689158479
167,vilyuchinsk,52.9306,158.4028,14.150000000000034,76,0,4.2,RU,1689158480
168,margaret river,-33.95,115.0667,16.890000000000043,78,100,10.6,AU,1689158481
169,nar'yan-mar,67.6713,53.087,14.650000000000034,54,100,5.65,RU,1689158482
170,ylitornio,66.3089,23.6773,24.57000000000005,34,6,3.24,FI,1689158483
171,newman,37.3138,-121.0208,21.27000000000004,72,0,0.89,US,1689158483
172,diego de almagro,-26.3667,-70.05,8.120000000000005,58,0,2.12,CL,1689158484
173,kodiak,57.79,-152.4072,11.730000000000018,87,100,4.63,US,1689158485
174,scone,56.4194,-3.4051,19.930000000000007,70,34,3.44,GB,1689158486
175,constantia,44.1833,28.65,29.379999999999995,58,4,3.92,RO,1689158487
176,burang,30.25,81.1667,11.79000000000002,86,100,2.84,CN,1689158488
177,petrovskaya,45.4314,37.955,24.850000000000023,52,76,5.61,RU,1689158489
178,tondano,1.3038,124.9112,24.05000000000001,95,96,0.77,ID,1689158490
179,daulatpur,26.5015,67.9706,45.39000000000004,15,48,3.63,PK,1689158491
180,aral,40.5156,81.2636,34.52000000000004,18,31,5.77,CN,1689158493
181,mingshui,36.7167,117.5,24.970000000000027,94,100,4.13,CN,1689158494
182,hithadhoo,-0.6,73.0833,28.200000000000045,72,100,3.28,MV,1689158495
183,vysokiy,58.35,60.05,34.31,27,99,4.91,RU,1689158496
184,vila velha,-20.3297,-40.2925,22.189999999999998,92,0,0.0,BR,1689158498
185,holualoa,19.6228,-155.9522,22.910000000000025,89,0,3.09,US,1689158499
186,kununurra,-15.7667,128.7333,22.99000000000001,53,63,2.06,AU,1689158500
187,ponta delgada,37.7333,-25.6667,22.400000000000034,94,75,5.66,PT,1689158233
188,lorengau,-2.0226,147.2712,26.620000000000005,85,100,5.38,PG,1689158502
189,the pas,53.8251,-101.2541,13.010000000000048,76,100,2.57,CA,1689158503
190,minas de marcona,-15.2119,-75.1103,11.53000000000003,91,79,6.65,PE,1689158504
191,crane,31.3974,-102.3501,29.49000000000001,44,28,6.07,US,1689158380
192,ta`u,-14.2336,-169.5144,27.49000000000001,82,83,6.94,AS,1689158506
193,new martinsville,39.6445,-80.8576,18.840000000000032,91,59,1.34,US,1689158507
194,valparaiso,-33.0393,-71.6273,14.439999999999998,63,100,1.03,CL,1689158213
195,port douglas,-16.4833,145.4667,21.939999999999998,84,85,7.65,AU,1689158509
196,hilo,19.7297,-155.09,23.470000000000027,90,75,2.06,US,1689158510
197,dakhla,23.6848,-15.958,24.010000000000048,78,38,5.66,EH,1689158511
198,nishinoomote,30.7333,131.0,27.860000000000014,84,100,2.24,JP,1689158512
199,melfi,40.9965,15.6514,35.31,24,0,3.55,IT,1689158513
200,san antonio de pale,-1.4014,5.6325,23.340000000000032,88,98,4.6,GQ,1689158514
201,nova olinda do norte,-3.8881,-59.0942,24.150000000000034,80,6,0.83,BR,1689158515
202,beloha,-25.1667,45.05,21.04000000000002,40,34,6.62,MG,1689158517
203,rosenberg,49.0748,19.3075,24.28000000000003,60,90,3.47,SK,1689158518
204,thompson,55.7435,-97.8558,10.090000000000032,87,75,1.03,CA,1689158519
205,petropavlovsk-kamchatsky,53.0452,158.6483,13.330000000000041,67,0,2.0,RU,1689158520
206,kingscliff,-28.2667,153.5667,17.090000000000032,72,100,4.12,AU,1689158521
207,bamboo flat,11.7,92.7167,31.05000000000001,74,40,6.69,IN,1689158522
208,bireun,5.203,96.7009,28.49000000000001,75,50,1.29,ID,1689158523
209,bazarnyy karabulak,52.2683,46.4144,19.700000000000045,54,94,5.54,RU,1689158524
210,prince rupert,54.3161,-130.3201,11.830000000000041,91,0,2.57,CA,1689158280
211,sanctuary point,-35.1114,150.629,14.620000000000005,68,5,3.49,AU,1689158526
212,cabo san lucas,22.8909,-109.9124,28.060000000000002,80,100,0.89,MX,1689158527
213,arys,42.4252,68.795,43.79000000000002,5,0,1.95,KZ,1689158529
214,tura,25.5198,90.2201,26.960000000000036,88,100,2.31,IN,1689158419
215,kasama,-10.2129,31.1808,20.810000000000002,46,99,4.68,ZM,1689158531
216,weno,7.4515,151.8468,26.970000000000027,89,100,1.54,FM,1689158532
217,ryazan',55.6744,36.6697,15.379999999999995,48,100,4.24,RU,1689158533
218,kyaikto,17.3,97.0167,27.04000000000002,84,98,4.07,MM,1689158534
219,andapa,-14.65,49.65,25.720000000000027,54,32,1.84,MG,1689158535
220,margate,51.3813,1.3862,22.05000000000001,53,17,4.02,GB,1689158536
221,dedenevo,56.25,37.5167,14.270000000000039,51,98,6.26,RU,1689158537
222,havre,49.5833,0.3333,22.33000000000004,68,40,8.23,FR,1689158538
223,jiangzi,28.95,89.6333,15.950000000000045,40,94,5.39,CN,1689158539
224,shenjiamen,29.9576,122.298,25.27000000000004,91,12,8.59,CN,1689158541
225,jarash,32.2808,35.8993,36.960000000000036,18,0,3.16,JO,1689158542
226,coro,11.4045,-69.6734,25.760000000000048,86,87,4.12,VE,1689158450
227,puerto leguizamo,-0.1934,-74.7819,20.5,99,32,0.87,CO,1689158545
228,kruisfontein,-34.0033,24.7314,18.82000000000005,38,0,2.61,ZA,1689158546
229,sungailiat,-1.85,106.1333,27.77000000000004,72,38,4.42,ID,1689158548
230,talnakh,69.4865,88.3972,4.560000000000002,58,100,8.87,RU,1689158549
231,ilanskiy,56.2358,96.065,21.28000000000003,57,50,3.14,RU,1689158550
232,whitehorse,60.7161,-135.0538,12.79000000000002,71,100,4.12,CA,1689158549
233,zahirabad,17.6833,77.6167,29.400000000000034,49,100,5.45,IN,1689158552
234,abbadia san salvatore,42.8821,11.6695,31.890000000000043,48,10,5.26,IT,1689158553
235,new norfolk,-42.7826,147.0587,16.07000000000005,75,67,4.49,AU,1689158554
236,camana,-16.6228,-72.7111,16.53000000000003,89,65,4.79,PE,1689158555
237,stettler,52.3168,-112.7186,8.860000000000014,100,14,2.06,CA,1689158556
238,orchard homes,46.8633,-114.0484,12.730000000000018,80,0,2.24,US,1689158557
239,novobureyskiy,49.798,129.8774,22.400000000000034,62,1,0.53,RU,1689158558
240,rabo de peixe,37.8,-25.5833,21.730000000000018,94,75,5.66,PT,1689158559
241,antigonish,45.6169,-61.9986,18.970000000000027,99,100,1.95,CA,1689158454
242,simplicio mendes,-7.8539,-41.9103,25.49000000000001,58,0,5.21,BR,1689158561
243,borogontsy,62.6683,131.1683,19.460000000000036,95,85,2.33,RU,1689158562
244,pombas,17.1503,-25.0201,25.879999999999995,73,59,4.41,CV,1689158563
245,klyuchi,52.2667,79.1667,39.09000000000003,16,19,4.45,RU,1689158564
246,manga,11.6636,-1.0731,33.58000000000004,44,82,1.66,BF,1689158565
247,howrah,22.5892,88.3103,31.0,79,75,3.09,IN,1689158566
248,takoradi,4.8845,-1.7554,24.910000000000025,86,100,3.79,GH,1689158567
249,chhor,25.5167,69.7667,40.08000000000004,28,65,7.93,PK,1689158544
250,paradip garh,20.3167,86.6167,30.470000000000027,72,100,5.39,IN,1689158569
251,bikenibeu village,1.3673,173.1241,28.980000000000018,74,75,2.57,KI,1689158571
252,chengzhong,30.95,113.55,31.470000000000027,74,66,3.94,CN,1689158572
253,reggane,26.7158,0.1714,44.73000000000002,7,0,8.95,DZ,1689158573
254,sandakan,5.8402,118.1179,23.82000000000005,94,40,1.54,MY,1689158310
255,torghay,49.6339,63.4981,41.51000000000005,11,53,7.61,KZ,1689158576
256,susuman,62.7833,148.1667,16.78000000000003,55,13,4.08,RU,1689158577
257,atafu village,-8.5421,-172.5159,28.590000000000032,74,100,6.36,TK,1689158578
258,greenland,43.0362,-70.8328,22.30000000000001,90,20,2.57,US,1689158579
259,alesund,62.4723,6.1549,22.730000000000018,56,0,3.09,NO,1689158568
260,phang nga,8.4509,98.5298,30.02000000000004,76,76,2.41,TH,1689158580
261,celestun,20.8667,-90.4,25.57000000000005,85,0,4.1,MX,1689158581
262,pokaran,26.9167,71.9167,39.57000000000005,31,84,5.01,IN,1689158583
263,mirny,62.5353,113.9611,15.689999999999998,63,85,5.81,RU,1689158584
264,chos malal,-37.3781,-70.2709,2.32000000000005,96,100,1.05,AR,1689158585
265,ad dabbah,18.05,30.95,39.72000000000003,13,97,1.1,SD,1689158586
266,isiro,2.7739,27.616,30.400000000000034,47,100,1.58,CD,1689158587
267,santa marta de ortigueira,43.6833,-7.85,19.03000000000003,85,92,1.31,ES,1689158588
268,broken hill,-31.95,141.4333,9.610000000000014,57,0,0.19,AU,1689158589
269,peniche,39.3558,-9.3811,25.04000000000002,82,83,5.43,PT,1689158590
270,arraial do cabo,-22.9661,-42.0278,21.920000000000016,94,75,1.54,BR,1689158591
271,inhambane,-23.865,35.3833,22.99000000000001,49,40,6.17,MZ,1689158592
272,pandan,14.0453,124.1694,27.390000000000043,87,100,3.75,PH,1689158594
273,north bend,43.4065,-124.2243,15.480000000000018,88,100,2.57,US,1689158595
274,chinhoyi,-17.3667,30.2,20.650000000000034,25,2,3.57,ZW,1689158596
275,tazacorte,28.629,-17.9293,27.860000000000014,70,0,6.17,ES,1689158597
276,ilulissat,69.2167,-51.1,8.010000000000048,87,40,0.0,GL,1689158598
277,ciudad sabinas hidalgo,26.5,-100.1667,25.230000000000018,81,20,1.58,MX,1689158599
278,rakops,-21.0167,24.3333,17.390000000000043,34,0,8.71,BW,1689158600
279,zhezqazghan,47.7833,67.7667,38.32000000000005,16,0,6.0,KZ,1689158479
280,presidencia roque saenz pena,-26.7852,-60.4388,17.100000000000023,97,100,1.38,AR,1689158602
281,buka,40.8108,69.1986,44.420000000000016,6,0,5.06,UZ,1689158604
282,fale old settlement,-9.3852,-171.2468,28.510000000000048,78,100,6.32,TK,1689158605
283,klintsy,52.7602,32.2393,19.75,49,16,6.39,RU,1689158606
284,new romney,50.986,0.9412,22.189999999999998,75,20,10.8,GB,1689158607
285,kindu,-2.95,25.95,36.79000000000002,29,28,0.33,CD,1689158608
286,city of balikpapan,-1.242,116.8942,28.970000000000027,74,20,4.63,ID,1689158609
287,port alfred,-33.5906,26.891,20.100000000000023,58,0,0.89,ZA,1689158611
288,alice springs,-23.7,133.8833,9.75,53,0,4.19,AU,1689158612
289,sabzevar,36.2126,57.6819,39.60000000000002,21,0,6.17,IR,1689158613
290,juneau,58.3019,-134.4197,14.010000000000048,94,100,0.0,US,1689158613
291,tiruchchendur,8.4833,78.1167,36.160000000000025,67,64,9.23,IN,1689158615
292,la fria,8.2203,-72.2439,22.99000000000001,80,100,0.89,VE,1689158616
293,rawson,-43.3002,-65.1023,4.430000000000007,75,89,3.27,AR,1689158617
294,parun,35.4207,70.9221,22.960000000000036,26,22,0.83,AF,1689158619
295,boysun,38.2061,67.1986,37.77000000000004,8,0,5.45,UZ,1689158620
296,tralee,52.2704,-9.7026,15.140000000000043,94,75,1.54,IE,1689158621
297,porbandar,21.6422,69.6093,29.80000000000001,72,74,5.68,IN,1689158622
298,impfondo,1.6381,18.0667,34.73000000000002,41,51,1.3,CG,1689158623
299,udachny,66.4167,112.4,14.140000000000043,50,96,5.27,RU,1689158624
300,sona,45.4388,10.8255,30.52000000000004,54,20,3.6,IT,1689158625
301,christchurch,-43.5333,172.6333,2.730000000000018,89,98,1.03,NZ,1689158333
302,bellair-meadowbrook terrace,30.1788,-81.7434,25.970000000000027,89,40,0.0,US,1689158627
303,poso,-1.3959,120.7524,25.710000000000036,90,89,0.14,ID,1689158628
304,happy valley-goose bay,53.3168,-60.3315,20.170000000000016,68,75,3.6,CA,1689158629
305,puerto deseado,-47.7503,-65.8938,3.160000000000025,80,86,3.4,AR,1689158630
306,hirara,24.8,125.2833,30.150000000000034,79,20,5.66,JP,1689158631
307,espanola,35.9911,-106.0806,26.99000000000001,47,13,1.47,US,1689158564
308,arquitecto tomas romero pereira,-26.4833,-55.25,18.870000000000005,78,93,3.65,PY,1689158633
309,wanning,18.8003,110.3967,29.29000000000002,77,2,3.87,CN,1689158634
310,mentekab,3.4854,102.3484,26.180000000000007,93,79,0.97,MY,1689158635
311,noosa heads,-26.3833,153.15,17.410000000000025,70,85,3.94,AU,1689158636
312,senanga,-16.1167,23.2667,22.189999999999998,26,0,4.24,ZM,1689158637
313,kodinsk,58.6881,99.1844,23.670000000000016,30,41,3.28,RU,1689158639
314,cumana,10.4635,-64.1775,25.900000000000034,80,100,1.07,VE,1689158640
315,touros,-5.1989,-35.4608,26.100000000000023,73,2,5.9,BR,1689158641
316,souillac,-20.5167,57.5167,25.210000000000036,69,40,2.06,MU,1689158642
317,carnarvon,-24.8667,113.6333,18.49000000000001,66,0,6.69,AU,1689158643
318,greymouth,-42.4667,171.2,8.260000000000048,81,100,6.82,NZ,1689158645
319,codrington,-38.2667,141.9667,10.990000000000009,71,97,6.56,AU,1689158646
320,roxas,11.5853,122.7511,27.30000000000001,83,95,2.43,PH,1689158647
321,dolinsk,47.35,142.8,11.810000000000002,99,100,3.49,RU,1689158648
322,flying fish cove,-10.4217,105.6791,24.82000000000005,83,75,6.69,CX,1689158640
323,nyurba,63.2842,118.3319,15.020000000000039,74,94,4.24,RU,1689158650
324,queenstown,-31.8976,26.8753,16.870000000000005,27,0,3.9,ZA,1689158651
325,jalai nur,49.45,117.7,19.78000000000003,59,83,2.22,CN,1689158652
326,salinopolis,-0.6136,-47.3561,26.680000000000007,85,26,2.97,BR,1689158653
327,st. john's,47.5649,-52.7093,13.770000000000039,98,100,2.57,CA,1689158516
328,fedorovskiy,45.0972,40.9517,25.510000000000048,43,83,8.2,RU,1689158655
329,gerash,27.6652,54.1371,42.08000000000004,11,1,2.76,IR,1689158656
330,sao vicente,-23.9631,-46.3919,22.370000000000005,26,10,1.28,BR,1689158658
331,isangel,-19.55,169.2667,21.400000000000034,71,91,7.8,VU,1689158659
332,lalago,-3.45,33.95,28.720000000000027,28,2,6.11,TZ,1689158660
333,zhumysker,49.3333,49.4,24.400000000000034,39,48,6.63,KZ,1689158479
334,poronaysk,49.2167,143.1167,12.420000000000016,88,100,1.62,RU,1689158662
335,djenne,13.9061,-4.5533,35.5,34,57,3.24,ML,1689158663
336,aykhal,66.0,111.5,12.920000000000016,51,100,3.7,RU,1689158665
337,salym,60.0625,71.4789,27.430000000000007,49,77,3.01,RU,1689158666
338,pangai,-19.8,-174.35,23.890000000000043,88,100,7.74,TO,1689158667
339,callao,-12.0667,-77.15,20.400000000000034,77,100,3.6,PE,1689158402
340,balakhta,55.38,91.6,20.27000000000004,69,96,2.28,RU,1689158669
341,la'ie,21.6477,-157.9253,25.980000000000018,79,35,1.34,US,1689158670
342,tucuma,-0.1833,-50.05,25.879999999999995,86,11,1.51,BR,1689158671
343,argo,37.6333,22.7333,34.32000000000005,22,0,2.07,GR,1689158672
344,east london,-33.0153,27.9116,19.52000000000004,52,0,2.57,ZA,1689158673
345,cooper's town,26.8667,-77.5167,29.160000000000025,77,58,4.62,BS,1689158674
346,malango,-2.9627,119.9001,20.49000000000001,99,77,0.35,ID,1689158675
347,bulanash,57.2783,61.9965,33.710000000000036,35,100,6.8,RU,1689158676
348,selfoss,63.9331,-20.9971,16.140000000000043,54,15,3.0,IS,1689158677
349,tarrafal de sao nicolau,16.5667,-24.3667,24.5,73,96,3.89,CV,1689158678
350,morogoro,-6.8167,37.6667,28.100000000000023,51,40,0.0,TZ,1689158679
351,tezu,27.9167,96.1667,24.33000000000004,99,100,1.45,IN,1689158680
352,road town,18.4167,-64.6167,28.05000000000001,80,100,10.77,VG,1689158681
353,enumclaw,47.2043,-121.9915,14.53000000000003,90,87,0.45,US,1689158682
354,barra de santo antonio,-9.4047,-35.5072,22.600000000000023,80,4,2.89,BR,1689158683
355,ad dilam,23.9915,47.1627,45.23000000000002,8,18,1.18,SA,1689158684
356,thai binh,20.45,106.3333,31.390000000000043,67,2,5.66,VN,1689158685
357,makungu,-8.7333,35.2833,17.03000000000003,77,100,2.95,TZ,1689158686
358,labuan bajo,-8.4964,119.8877,25.350000000000023,80,99,2.11,ID,1689158687
359,port augusta,-32.5,137.7667,10.990000000000009,59,0,2.57,AU,1689158688
360,coquimbo,-29.9533,-71.3436,13.860000000000014,71,48,0.4,CL,1689158586
361,spasskoye,44.6108,132.7969,16.910000000000025,95,62,2.63,RU,1689158690
362,ostrovskoye,57.8057,42.2433,10.350000000000023,91,100,3.44,RU,1689158691
363,red deer,52.2668,-113.802,10.660000000000025,100,100,2.06,CA,1689158685
364,moanda,-1.5575,13.2178,24.129999999999995,40,83,1.15,GA,1689158692
365,wynyard,-41.0,145.7167,12.980000000000018,79,99,6.39,AU,1689158693
366,nguigmi,14.2495,13.1092,34.72000000000003,38,68,3.38,NE,1689158695
367,ranchettes,41.2186,-104.7903,18.5,39,0,5.36,US,1689158696
368,fort st. john,56.2499,-120.8529,12.939999999999998,88,0,1.54,CA,1689158697
369,preobrazheniye,42.9019,133.9064,17.04000000000002,91,61,1.8,RU,1689158698
370,nova sintra,14.8667,-24.7167,21.29000000000002,76,87,4.31,CV,1689158699
371,vazante,-17.9869,-46.9078,20.939999999999998,45,0,1.0,BR,1689158701
372,aginskoye,51.1,114.53,23.77000000000004,64,38,2.86,RU,1689158703
373,dali,25.7,100.1833,21.230000000000018,77,99,3.16,CN,1689158705
374,dalhart,36.0595,-102.5133,21.010000000000048,73,0,2.57,US,1689158706
375,cuito,-12.3833,16.9333,14.080000000000041,21,0,5.14,AO,1689158707
376,okhotsk,59.3833,143.3,12.420000000000016,89,10,3.48,RU,1689158708
377,lubango,-14.9172,13.4925,14.920000000000016,20,0,4.63,AO,1689158709
378,nadi,-17.8,177.4167,23.0,68,75,5.14,FJ,1689158710
379,saudarkrokur,65.7461,-19.6394,7.75,78,73,5.77,IS,1689158711
380,saint-pierre,-21.3393,55.4781,25.82000000000005,57,0,2.57,RE,1689158712
381,awjilah,29.1081,21.2869,35.420000000000016,12,0,5.37,LY,1689158713
382,bodo,67.28,14.405,20.53000000000003,60,75,8.23,NO,1689158714
383,lerwick,60.1545,-1.1494,15.0,82,100,3.03,GB,1689158715
384,port moresby,-9.4431,147.1797,25.680000000000007,78,40,7.72,PG,1689158535
385,fort bragg,35.139,-79.006,24.0,85,75,2.06,US,1689158717
386,magadan,59.5667,150.8,10.450000000000045,91,12,3.1,RU,1689158718
387,cascais,38.6979,-9.4215,26.950000000000045,70,40,6.69,PT,1689158719
388,ust-nera,64.5667,143.2,22.24000000000001,53,51,2.35,RU,1689158721
389,ghat,24.9647,10.1728,35.56,13,0,7.28,LY,1689158721
390,peruibe,-24.32,-46.9983,19.720000000000027,93,37,1.2,BR,1689158716
391,umba,66.6871,34.3429,16.420000000000016,59,85,3.53,RU,1689158724
392,sitka,57.0531,-135.33,10.939999999999998,82,100,1.54,US,1689158726
393,byalynichy,53.9983,29.7126,20.05000000000001,42,55,2.85,BY,1689158727
394,uacu cungo,-11.3634,15.1208,24.629999999999995,12,0,2.58,AO,1689158728
395,pelagiada,45.2064,42.0236,23.75,49,40,8.0,RU,1689158729
396,vorkuta,67.5,64.0,15.75,49,11,3.77,RU,1689158730
397,scarborough,54.2797,-0.4044,18.850000000000023,72,54,1.79,GB,1689158731
398,sainte-menehould,49.0833,4.9,24.74000000000001,50,98,4.98,FR,1689158732
399,tangalle,6.024,80.7911,32.09000000000003,69,65,7.4,LK,1689158733
400,areal,-22.2306,-43.1056,19.74000000000001,78,0,0.74,BR,1689158734
401,manhattan,40.7834,-73.9662,25.379999999999995,68,0,2.06,US,1689158640
402,kolonia town,6.964,158.206,28.0,83,75,2.06,FM,1689158736
403,hovd,48.0056,91.6419,20.220000000000027,44,65,1.75,MN,1689158738
404,jayapura,-2.5333,140.7,28.660000000000025,90,63,4.49,ID,1689158739
405,kargasok,59.0556,80.8572,23.590000000000032,38,44,0.52,RU,1689158740
406,benin city,6.335,5.6275,26.590000000000032,81,100,2.12,NG,1689158740
407,gouyave,12.1646,-61.7296,27.430000000000007,83,20,6.69,GD,1689158742
408,paciran,-6.8767,112.3761,26.590000000000032,70,58,3.33,ID,1689158743
409,lashio,22.9333,97.75,22.660000000000025,96,100,0.22,MM,1689158744
410,taltal,-25.4,-70.4833,14.910000000000025,61,0,1.22,CL,1689158745
411,apsheronsk,44.46,39.73,26.410000000000025,35,65,6.11,RU,1689158746
412,kargopol',61.5071,38.9456,9.370000000000005,98,100,4.41,RU,1689158747
413,amursk,50.2261,136.8994,20.120000000000005,47,100,1.77,RU,1689158474
414,kimbe,-5.5502,150.1429,25.360000000000014,83,100,3.71,PG,1689158749
415,kuruman,-27.4524,23.4325,16.660000000000025,25,0,5.36,ZA,1689158749
416,sweet home,44.3976,-122.7362,13.620000000000005,86,63,1.09,US,1689158750
417,klaksvik,62.2266,-6.589,10.510000000000048,98,100,7.74,FO,1689158751
418,ballito,-29.539,31.2144,20.08000000000004,60,0,2.57,ZA,1689158757
419,oromocto,45.8351,-66.4792,20.400000000000034,100,100,1.54,CA,1689158758
420,san julian,21.0167,-102.1667,14.400000000000034,83,13,1.97,MX,1689158760
421,saint-philippe,-21.3585,55.7679,25.77000000000004,73,16,3.33,RE,1689158761
422,miedzyrzec podlaski,51.9864,22.7825,27.49000000000001,37,43,4.22,PL,1689158762
423,eirunepe,-6.6603,-69.8736,21.910000000000025,85,1,0.83,BR,1689158763
424,tofol,5.3248,163.0078,29.0,73,52,4.65,FM,1689158764
425,ismailia,30.6043,32.2723,34.04000000000002,46,0,5.14,EG,1689158766
426,kinik,39.0872,27.3833,32.950000000000045,25,0,4.58,TR,1689158767
427,den helder,52.9599,4.7593,21.640000000000043,74,75,7.72,NL,1689158768
428,nova odesa,47.3078,31.7851,26.470000000000027,36,10,3.64,UA,1689158770
429,patacamaya,-17.2333,-67.9167,3.5600000000000023,39,15,2.31,BO,1689158771
430,santa cruz do rio pardo,-22.8989,-49.6325,18.110000000000014,67,0,1.75,BR,1689158772
431,west bay,19.3667,-81.4167,29.439999999999998,85,18,0.89,KY,1689158773
432,keita,14.7551,5.7749,33.99000000000001,41,100,5.78,NE,1689158774
433,grand falls-windsor,48.9332,-55.6649,18.060000000000002,87,98,0.89,CA,1689158718
434,takaungu,-3.6837,39.8566,27.25,66,63,10.28,KE,1689158776
435,antsiranana,-12.2787,49.2917,30.420000000000016,45,20,3.09,MG,1689158777
436,fort mcmurray,56.7268,-111.381,14.770000000000039,88,75,1.54,CA,1689158778
437,ashchysay,43.5542,68.8889,35.860000000000014,10,0,6.28,KZ,1689158780
438,kiunga,-6.1219,141.2906,23.890000000000043,99,99,1.8,PG,1689158783
439,chrysoupolis,40.9856,24.6939,32.89000000000004,40,0,2.57,GR,1689158786
440,taounate,34.5,-4.8333,37.26000000000005,23,54,2.87,MA,1689158787
441,beloyarskiy,63.7119,66.6722,17.0,53,100,3.33,RU,1689158788
442,alo,7.4178,6.7371,29.05000000000001,75,100,2.52,NG,1689158789
443,gadzhiyevo,69.2551,33.3362,23.210000000000036,41,7,3.2,RU,1689158790
444,moroeni,45.2167,25.4333,28.650000000000034,48,26,3.63,RO,1689158791
445,mirante do paranapanema,-22.2919,-51.9064,18.160000000000025,54,0,2.31,BR,1689158792
446,severo-yeniseyskiy,60.3725,93.0408,19.200000000000045,33,6,3.72,RU,1689158793
447,joniskis,56.2403,23.6153,23.510000000000048,36,10,2.0,LT,1689158794
448,barcelos,41.5388,-8.6151,23.710000000000036,62,62,3.49,PT,1689158795
449,rikaze,29.25,88.8833,21.230000000000018,37,97,6.84,CN,1689158796
450,kintampo,8.0563,-1.7306,27.890000000000043,68,99,2.29,GH,1689158797
451,nuuk,64.1835,-51.7216,15.340000000000032,77,0,6.69,GL,1689158798
452,samtredia,42.1537,42.3352,27.150000000000034,50,0,1.03,GE,1689158799
453,xishan,27.6667,113.5,32.700000000000045,57,84,1.93,CN,1689158800
454,puerto aysen,-45.4,-72.7,-5.46999999999997,97,38,0.63,CL,1689158801
455,prince george,53.9166,-122.753,11.25,85,100,3.09,CA,1689158802
456,greenwood,34.1668,-82.1165,19.79000000000002,100,0,0.0,US,1689158803
457,rongelap,11.1635,166.8941,28.29000000000002,80,17,6.56,MH,1689158804
458,ain el bya,35.8039,-0.3018,38.27000000000004,40,1,4.45,DZ,1689158805
459,floro,61.5996,5.0328,20.129999999999995,77,75,5.14,NO,1689158806
460,terrace,54.5163,-128.6035,12.340000000000032,76,0,3.09,CA,1689158807
461,brookings,44.3114,-96.7984,13.390000000000043,98,100,9.26,US,1689158669
462,kinablangan,7.6947,126.5503,27.140000000000043,85,96,2.3,PH,1689158809
463,lata,40.1629,-8.3327,22.82000000000005,50,89,3.89,PT,1689158810
464,siniscola,40.5719,9.6922,36.75,48,1,5.08,IT,1689158811
465,sroda wielkopolska,52.2284,17.2762,22.810000000000002,74,99,4.52,PL,1689158812
466,katsuren-haebaru,26.3369,127.8719,30.220000000000027,74,20,2.57,JP,1689158813
467,kavalerovo,44.2661,135.0572,16.400000000000034,98,99,0.66,RU,1689158814
468,adigrat,14.277,39.462,21.200000000000045,51,99,3.43,ET,1689158815
469,el quebrachal,-25.2833,-64.0667,15.980000000000018,86,96,5.08,AR,1689158816
470,sacueni,47.35,22.1,31.230000000000018,45,15,5.16,RO,1689158817
471,nouadhibou,20.931,-17.0347,22.99000000000001,88,40,2.06,MR,1689158818
472,mejit,10.2753,170.8646,28.25,79,30,6.2,MH,1689158819
473,monywa,22.1167,95.1333,31.650000000000034,59,100,1.59,MM,1689158820
474,murgeni,46.2044,28.0197,27.77000000000004,44,5,1.44,RO,1689158821
475,silopi,37.2497,42.4694,37.650000000000034,12,0,2.97,TR,1689158823
476,santana,-0.0583,-51.1817,24.100000000000023,100,0,1.54,BR,1689158824
477,kapit,2.0167,112.9333,24.160000000000025,97,89,0.24,MY,1689158825
478,conduaga,8.862,117.4893,26.510000000000048,86,66,2.81,PH,1689158826
479,bayevo,53.2833,80.7667,32.43000000000001,34,37,4.45,RU,1689158827
480,itupiranga,-5.1347,-49.3267,24.180000000000007,75,0,0.83,BR,1689158829
481,kerikeri,-35.2268,173.9474,9.950000000000045,91,11,3.2,NZ,1689158830
482,dryden,49.7833,-92.7503,11.160000000000025,87,0,0.0,CA,1689158831
483,stephenville,32.2207,-98.2023,28.260000000000048,72,40,3.6,US,1689158832
484,murray bridge,-35.1167,139.2667,10.740000000000009,71,74,2.93,AU,1689158833
485,mount isa,-20.7333,139.5,19.870000000000005,60,0,4.12,AU,1689158834
486,clarion,41.2148,-79.3853,20.100000000000023,83,68,1.79,US,1689158835
487,porto novo,6.4965,2.6036,23.900000000000034,94,100,1.59,BJ,1689158836
488,kainantu,-6.2887,145.8655,15.129999999999995,97,66,1.14,PG,1689158837
489,ashburton,-37.8626,145.0794,12.990000000000009,68,66,3.71,AU,1689158838
490,ceerigaabo,10.6162,47.368,27.52000000000004,31,51,10.88,SO,1689158839
491,vung tau,10.346,107.0843,29.590000000000032,80,73,7.67,VN,1689158819
492,yasnyy,51.0333,59.8742,20.77000000000004,70,100,4.46,RU,1689158841
493,tuy hoa,13.0833,109.3,28.340000000000032,81,49,2.66,VN,1689158842
494,chauk,20.8833,94.8167,34.410000000000025,44,100,7.14,MM,1689158843
495,kapa'a,22.0752,-159.319,27.180000000000007,81,100,7.2,US,1689158844
496,inderbor,48.55,51.7833,27.49000000000001,31,73,6.14,KZ,1689158845
497,carutapera,-1.195,-46.02,27.350000000000023,78,14,2.79,BR,1689158846
498,nurota,40.5614,65.6886,41.460000000000036,6,0,7.25,UZ,1689158847
499,srandakan,-7.9386,110.2506,24.120000000000005,79,56,4.26,ID,1689158849
500,ternate,0.8,127.4,27.24000000000001,83,92,3.28,ID,1689158850
501,bouarfa,32.53,-1.95,37.43000000000001,11,75,3.93,MA,1689158851
502,toliara,-23.35,43.6667,24.430000000000007,37,7,7.54,MG,1689158852
503,vysokaya gora,55.9128,49.3017,15.100000000000023,79,100,6.15,RU,1689158853
504,sanya,18.2431,109.505,31.090000000000032,74,20,2.0,CN,1689158557
505,north tamworth,-31.0778,150.9261,7.060000000000002,76,0,1.03,AU,1689158855
506,champerico,14.3,-91.9167,26.100000000000023,87,88,2.79,GT,1689158856
507,longido,-2.7333,36.6833,25.090000000000032,38,38,6.36,TZ,1689158857
508,hasaki,35.7333,140.8333,29.220000000000027,79,77,6.56,JP,1689158858
509,atar,20.5169,-13.0499,35.460000000000036,34,53,3.6,MR,1689158859
510,carmarthen,51.8555,-4.3054,18.27000000000004,77,40,9.77,GB,1689158860
511,kailua-kona,19.6406,-155.9956,24.980000000000018,87,0,3.09,US,1689158861
512,karoi,-16.8099,29.6925,19.28000000000003,29,0,3.03,ZW,1689158862
513,ola,59.5833,151.2833,10.580000000000041,91,21,3.45,RU,1689158863
514,dodola,6.9833,39.1833,17.920000000000016,67,67,2.33,ET,1689158864
515,puerto escondido,15.85,-97.0667,26.08000000000004,75,68,2.49,MX,1689158865
516,huruta,8.15,39.35,23.960000000000036,50,72,2.24,ET,1689158866
517,arawa,-6.2132,155.5367,25.32000000000005,90,98,2.14,PG,1689158867
518,walvis bay,-22.9575,14.5053,25.129999999999995,23,0,9.86,NA,1689158868
519,sao joao da barra,-21.6403,-41.0511,21.05000000000001,86,18,3.06,BR,1689158869
520,phalaborwa,-23.943,31.1411,19.600000000000023,52,95,5.24,ZA,1689158870
521,stony plain,53.5334,-114.0021,13.620000000000005,84,75,2.06,CA,1689158871
522,peace river,56.2501,-117.286,13.170000000000016,94,0,1.54,CA,1689158872
523,colonia,50.9333,6.95,26.57000000000005,51,75,9.26,DE,1689158873
524,hauterive,46.0901,3.4459,24.420000000000016,54,100,0.82,FR,1689158876
525,rouvroy,50.3925,2.904,23.090000000000032,47,58,7.26,FR,1689158877
526,vuktyl,63.8567,57.3094,21.79000000000002,50,99,5.54,RU,1689158878
527,vershino-darasunskiy,52.35,115.5167,18.700000000000045,79,54,2.15,RU,1689158879
528,calingasta,-31.3308,-69.4078,4.490000000000009,51,7,0.94,AR,1689158880
529,abepura,-2.6333,140.5833,28.450000000000045,65,20,4.12,ID,1689158881
530,shalkar,47.8288,59.6258,34.49000000000001,29,89,8.87,KZ,1689158882
531,kouroussa,10.65,-9.8833,28.27000000000004,68,95,1.06,GN,1689158883
532,aitape,-3.1374,142.3475,27.150000000000034,88,100,5.23,PG,1689158884
533,gaitania,3.0906,-75.6723,15.360000000000014,90,32,2.3,CO,1689158885
534,sarasota,27.167,-82.3332,26.629999999999995,94,0,0.0,US,1689158886
535,ilha de mocambique,-15.0342,40.7358,24.910000000000025,68,27,10.38,MZ,1689158887
536,waimea,20.0231,-155.6717,21.120000000000005,93,46,1.09,US,1689158888
537,dwarka,22.2394,68.9678,29.879999999999995,71,79,6.03,IN,1689158889
538,whakatane,-37.9585,176.9854,10.990000000000009,82,8,3.22,NZ,1689158890
539,khurai,24.0436,78.3319,32.76000000000005,56,58,1.85,IN,1689158891
540,sinop,41.7711,34.8709,23.24000000000001,49,11,2.67,TR,1689158892
541,miri,4.4148,114.0089,28.08000000000004,78,40,1.54,MY,1689158893
542,fairmont,39.4851,-80.1426,19.310000000000002,94,47,1.63,US,1689158885
543,hoemul-li,41.4339,129.67,22.689999999999998,84,41,2.62,KP,1689158895
544,jieshi,22.8134,115.8257,28.79000000000002,78,48,3.62,CN,1689158897
545,santanyi,39.3546,3.1291,37.68000000000001,61,1,4.02,ES,1689158898
546,chibuto,-24.6867,33.5306,21.27000000000004,45,50,6.2,MZ,1689158899
547,kismayo,-0.3582,42.5454,27.930000000000007,64,11,8.72,SO,1689158900
548,ouarzazat,30.9189,-6.8934,34.160000000000025,8,1,1.03,MA,1689158901
549,mankato,44.1636,-93.9994,16.49000000000001,92,75,4.63,US,1689158902
550,carbondale,37.7273,-89.2168,18.920000000000016,95,100,0.0,US,1689158903
551,alassio,44.0039,8.1671,31.680000000000007,72,40,4.63,IT,1689158904
552,cabedelo,-6.9811,-34.8339,23.370000000000005,77,0,5.6,BR,1689158905
553,san luis de la loma,17.2706,-100.8939,24.590000000000032,89,100,5.05,MX,1689158906
554,kayangel,8.0823,134.7173,27.25,85,100,8.35,PW,1689158907
555,bardai,11.65,7.2333,32.31,40,92,2.63,NG,1689158908
556,ceeldheer,3.8488,47.1806,30.82000000000005,53,90,11.59,SO,1689158909
557,north platte,41.1239,-100.7654,22.430000000000007,94,0,3.13,US,1689158910
558,natal,-5.795,-35.2094,24.120000000000005,88,20,3.6,BR,1689158822
559,dickinson,29.4608,-95.0513,28.379999999999995,90,75,3.6,US,1689158720
560,altai,46.3722,96.2583,10.590000000000032,84,94,3.63,MN,1689158914
561,sisimiut,66.9395,-53.6735,11.090000000000032,84,93,2.53,GL,1689158915
562,turtas,58.9417,69.1325,33.870000000000005,40,63,2.15,RU,1689158916
